name,address,latitude,longitude
The Key แจ้งวัฒนะ,"The Key แจ้งวัฒนะ อ.ปากเกร็ด, Pak Kret District, Nonthaburi",13.899866,100.540205
The Base แจ้งวัฒนะ,เดอะเบส คอนโด แจ้งวัฒนะ ตำบล คลองเกลือ นนทบุรี,13.897791,100.552473
Addera แจ้งวัฒนะ,"ADDERA Chaengwattana, Pak Kret District, Nonthaburi",13.904911,100.531569
The Seed แจ้งวัฒนะ,"เดอะซี้ด แจ้งวัฒนะ (The Seed Chaeng Watthana) ถนน แจ้งวัฒนะ Pak Kret, Pak Kret District, Nonthaburi",13.898773,100.545151
Astro แจ้งวัฒนะ,"Astro Condominium, ถนน แจ้งวัฒนะ Pak Kret, Pak Kret District, Nonthaburi",13.9042,100.530621
Grene แจ้งวัฒนะ,"Grene Condo Chaengwattana (กรีเน่ คอนโด แจ้งวัฒนะ) Chaeng Wattana Road, Pakkred, Pak Kret District, Nonthaburi",13.89569,100.55407